Name,Address,Address2,Address3,City,State,Zip,Phone,Latitude,Longitude
Sichuan Hot Pot Cuisine,2162 Rockwell Ave,,,Cleveland,OH,44114,+12165231188,41.5086,-81.67808
Emperor's Palace,2136 Rockwell Ave,,,Cleveland,OH,44114,+12168619999,41.508385,-81.678449
Ha Ahn Korean Restaurant,3030 Superior Ave E,,,Cleveland,OH,44114,+12166641152,41.51056,-81.6698
LJ Shanghai,3142 Superior Ave,,,Cleveland,OH,44114,+12164006936,41.51093,-81.66888
Siam Cafe,3951 St Clair Ave NE,,,Cleveland,OH,44114,+12163612323,41.516503,-81.6649155
Szechuan Cafe,2999 Payne Ave,Ste 145,,Cleveland,OH,44114,+12165151111,41.50811,-81.6691
Li Wah,2999 Payne Ave,Ste 102,,Cleveland,OH,44114,+12166966556,41.5083668054267,-81.669370655881
Szechuan Gourmet,1735 E 36th St,,,Cleveland,OH,44114,+12168819688,41.508505,-81.663319
Faith Sung Inc Dba Asian Kitchen,1301 E 9th St,,,Cleveland,OH,44114,+12165750808,41.504833,-81.690637
Great Taste Chinese Restaurant,1803 E 12th St,,,Cleveland,OH,44114,+12166859997,41.5019684,-81.6846008
Sung's House,1507 Euclid Ave,,,Cleveland,OH,44115,+12166967655,41.5010661,-81.6808243
Market Creations,1100 Superior Ave,,,Cleveland,OH,44114,+12169997087,41.5018714369745,-81.6862467633844
Sapporo Sushi,1940 E 6th St,,,Cleveland,OH,44114,+12165797000,41.5003699,-81.68961
Sakura,530 Euclid Ave,,,Cleveland,OH,44115,+12162740823,41.499748,-81.689162
Saigon Restaurant and Bar,2061 E 4th St,,,Cleveland,OH,44115,+12163442020,41.4989085,-81.6899104
Otani Noodle - Downtown,234 Euclid Ave,,,Cleveland,OH,44114,+12167621815,41.4994509,-81.6915759
Hanabi Japanese Restaurant,1313 W 6th St,,,Cleveland,OH,44113,+12162985060,41.4999177314058,-81.6987037927706
Tomo Sushi & Hibachi,1293 W 9th St,,,Cleveland,OH,44113,+12166964444,41.4994850158691,-81.7004547119141
Sakura Japanese Cuisine,2533 E 55th St,,,Cleveland,OH,44104,+12168818839,41.4893608,-81.6511536
Fat Cats,2061 W 10th St,,,Cleveland,OH,44113,+12165790200,41.48381,-81.68746
Parallax Restaurant and Lounge,2179 W 11th St,,,Cleveland,OH,44113,+12165839999,41.4824,-81.68902
Hunan One,7901 Euclid Ave,,,Cleveland,OH,44103,+12164210450,41.50451,-81.63322
Ginko Restaurant,2247 Professor Ave,,,Cleveland,OH,44113,+12162741202,41.48156,-81.68643
Wasabi Restaurant,2123 E79th St,,,Cleveland,OH,44103,+12164597533,41.500843824783,-81.6334452753302
Phnom Penh,1929 W 25th St,,,Cleveland,OH,44113,+12163572951,41.4852676391602,-81.7037353515625
China Mountain III,7907 Cedar Ave,,,Cleveland,OH,44103,+12168814477,41.50049,-81.6327699
China Town II,2051 W 25th St,,,Cleveland,OH,44113,+12165749250,41.48365,-81.70253
Corner 11 Bowl & Wrap,2391 W 11th St,,,Cleveland,OH,44113,+12167131757,41.47948,-81.68903
China One,2765 E 55th St,,,Cleveland,OH,44104,+12168818881,41.4830741882324,-81.6509399414062
IPoké Cleveland,10001 Chester Ave,,,Cleveland,OH,44106,+12167591001,41.50573,-81.61866
Xinji Noodle Bar,4211 Lorain Ave,,,Cleveland,OH,44113,+12164652439,41.47957,-81.71521
Mason's Creamery,4401 Bridge Ave,,,Cleveland,OH,44113,+12167621095,41.4804680356218,-81.7166946922636
Hong Kong Kitchen,2802 Clark Ave,,,Cleveland,OH,44109,+12165668811,41.470184,-81.701073
China Dragon,2802 Clark Ave,,,Cleveland,OH,44109,+12165668811,41.4701004,-81.7010803
Panda Express,3244 Steelyard Dr,,,Cleveland,OH,44109,+12166611027,41.4653161,-81.6871265
Ninja City Kitchen and Bar,6706 Detroit Ave,,,Cleveland,OH,44102,+12168627200,41.4839557604268,-81.7316197272125
Nüjoy,11311 Euclid Ave,,,Cleveland,OH,44106,+12169997016,41.5087236,-81.6059985
Wing Wah,5853 Broadway Ave,,,Cleveland,OH,44127,+12166416332,41.466499,-81.649334
Kenko Sushi & Teriyaki,11312 Euclid Ave,,,Cleveland,OH,44106,+12168627690,41.5082855,-81.6058426
Chopstick Chinese Restaurant,11332 Euclid Ave,,,Cleveland,OH,44106,+12167917998,41.5084707890612,-81.6051659116394
BIBIBOP Asian Grill,11431 Euclid Ave,,,Cleveland,OH,44106,+12169242750,41.509635,-81.60467
Sakura,5855 Broadway Ave,,,Cleveland,OH,44127,+12166418888,41.4657962809597,-81.6485204547644
Mashiso Asian Grille,24954 Brookpark Rd,,,North Olmsted,OH,44070,+14408011184,41.419502,-81.898061
Wild Mango Restaurant & Bar,362 Great Northern Mall,,,North Olmsted,OH,44070,+14409791888,41.417456,-81.904502
Chin's Pagoda Chinese & American Restaurant,30708 Lake Shore Blvd,,,Willowick,OH,44095,+14409448118,41.6403991,-81.4730514
TJ Hibachi & Sushi Bar,198 Great Northern Mall,,,North Olmsted,OH,44070,+14407168880,41.4173832579385,-81.9066131113625
Peking Chinese,5900 Som Center Rd,Ste 11,,Willoughby,OH,44094,+14405851221,41.60772,-81.44055
Sakura Japanese Restaurant,8409 Chippewa Rd,,,Brecksville,OH,44141,+14405263300,41.320199,-81.6228153
Frankie's Wok,8926 Brecksville Rd,,,Brecksville,OH,44141,+14405465388,41.3193,-81.62706
Hunan Solon,6050 Enterprise Pkwy,,,Solon,OH,44139,+14402488836,41.395033,-81.463795
Nam Wah Chinese Vietnamese,392 W Bagley Rd,,,Berea,OH,44017,+14402438181,41.3722949,-81.867235
Feng Lz Hibachi Sushi & Bar,1100 W Royalton Rd,Unit F,,Broadview Heights,OH,44147,+14404572380,41.3144329,-81.6864448
China Mountain II,31616 Vine St,,,Willowick,OH,44095,+14409430055,41.642097,-81.4653488
China House,420 W Bagley Rd,,,Berea,OH,44017,+14408169393,41.372455,-81.86824
South China Wok Restaurant,500 E Royalton Rd,,,Broadview Heights,OH,44147,+14405261511,41.313354,-81.682212
Issho Ni,34302 Euclid Ave,Unit 1-2,,Willoughby,OH,44094,+14403068020,41.623494,-81.444118
Shanghai Wok by B & Y,10424 Northfield Rd,,,Northfield,OH,44067,+13304677020,41.3423913195638,-81.5295235812664
Ming Moon,12758 Royalton Rd,,,North Royalton,OH,44133,+14408772238,41.3129518138715,-81.7543441506188
Li Garden Restaurant,34650 Vine St,,,Willowick,OH,44095,+14406028888,41.6423951,-81.4421266
Ming Moon Chinese Restaurant,12758 Royalton Rd,,,North Royalton,OH,44133,+14408772238,41.31537,-81.7831999
Wok of the Falls,8185 Columbia Rd,,,Olmsted Falls,OH,44138,+14402356655,41.3733788,-81.9010086
Smiles Chinese Food,500 W Aurora Rd,,,Northfield,OH,44067,+13309080986,41.313509689821,-81.5569987893105
Dragon Garden Restaurant,9415 Olde 8 Rd,,,Northfield,OH,44067,+13304680557,41.31627,-81.53838
Samurai Sushi and Steakhouse,16670 Royalton Rd,,,Strongsville,OH,44136,+14402386948,41.315657,-81.815215
Sarku Japan,500 Southpark Ctr,,,Strongsville,OH,44136,+14402386683,41.3123099,-81.82039
Fuji Japanese Restaurant,8210 Macedonia Cmns Blvd,,,Macedonia,OH,44056,+13304675553,41.3122138977051,-81.5183639526367
Dean's House,14393 Pearl Rd,,,Strongsville,OH,44136,+14402689598,41.3099573,-81.8350851
Zuki Sushi House,899 E Aurora Rd,,,Macedonia,OH,44056,+13307480999,41.3142427640058,-81.5064394794309
BIBIBOP Asian Grill,15191 Pearl Rd,,,Strongsville,OH,44136,+13802060722,41.30493,-81.8339
Sakura Sushi House,15040 Pearl Rd,,,Strongsville,OH,44136,+14402689668,41.3061263,-81.8353549
China Moon,10735 Ravenna Rd,,,Twinsburg,OH,44087,+13309633888,41.331638,-81.464009
Asia Garden,19648 W 130th St,,,Strongsville,OH,44136,+14402686622,41.278181635483,-81.7852382394222
Shinto Japanese Steakhouse & Sushi Bar,17070 Pearl Rd,,,Strongsville,OH,44136,+14408783868,41.293935,-81.835899
King Dragon,20906 Drake Rd,,,Strongsville,OH,44149,+14402388278,41.29055,-81.85675
Beijing Garden,7995 Darrow Rd,,,Twinsburg,OH,44087,+13304259795,41.283934,-81.440302
Inchin's Bamboo Garden,11440 Euclid Ave,,,Cleveland,OH,44106,+12162293003,41.5096408965652,-81.6041102477332
Otani Noodle - Uptown,11472 Euclid Ave,,,Cleveland,OH,44106,+12168621400,41.5100783553279,-81.6035645521395
Phusion Cafe,11611 Euclid Ave,,,Cleveland,OH,44106,+12169780088,41.5109853006326,-81.6030496358871
China Kitchen,6208 Broadway Ave,,,Cleveland,OH,44127,+12166417070,41.46337,-81.64721
China Town 1,3718 Pearl Rd,,,Cleveland,OH,44109,+12167411202,41.4536049,-81.7015822
Teriyaki Express,13201 Superior Ave,,,East Cleveland,OH,44112,+12166005129,41.523271476023,-81.5907681360841
China One,11708 Buckeye Rd,,,Cleveland,OH,44120,+12169912222,41.4805908203125,-81.601432800293
Teriyaki Express,7060 Denison Ave,,,Cleveland,OH,44102,+12168624008,41.4620331,-81.7368279
Flying Cranes Cafe,13006 Larchmere Blvd,,,Cleveland,OH,44120,+12167951033,41.48721,-81.59165
SASA,13120 Shaker Sq,,,Cleveland,OH,44120,+12167671111,41.48319,-81.59123
Hunan Coventry,1800 Coventry Rd,,,Cleveland Heights,OH,44118,+12163710777,41.5103685018715,-81.5802007953138
BD's Mongolian Grill,1854 Coventry Rd,,,Cleveland Heights,OH,44118,+12169321185,41.50865,-81.58032
Pacific East Japanese Restaurant,1763 Coventry Rd,,,Cleveland Heights,OH,44118,+12163202302,41.5115,-81.5798
High Thai'd,1791 Coventry Rd,,,Cleveland Heights,OH,44118,+12163215000,41.51099,-81.57978
Jackie Chen Wok,2756 Van Aken Blvd,,,Cleveland,OH,44120,+12162833888,41.4828682,-81.5888519
China Wok,3006 Broadview Rd,,,Cleveland,OH,44109,+12163986363,41.44045,-81.702275
Number 1 Kitchen,10670 Lorain Ave,,,Cleveland,OH,44111,+12162525588,41.46549,-81.76114
China City,4225 Fulton Rd,,,Cleveland,OH,44144,+12163515888,41.4415398,-81.7228775
China Mountain I,14959 Saint Clair Ave,,,Cleveland,OH,44110,+12164519222,41.5531616,-81.5769272
Richie Chan's Chinese Restaurant,13181 Cedar Rd,,,Cleveland,OH,44118,+12169328900,41.5013749,-81.56623
Dragon Light,3537 W 105th St,,,Cleveland,OH,44111,+12162510504,41.4561,-81.75852
Sun Sun Chinese Restaurant,4203 Ridge Rd,,,Cleveland,OH,44144,+12167495622,41.4423103,-81.7348633
China Star,3283 W 117th St,,,Cleveland,OH,44111,+12162515551,41.46291,-81.76872
China House,7413 Memphis Ave,,,Cleveland,OH,44144,+12163518888,41.43982,-81.73633
Hako,13603 Madison Ave,,,Lakewood,OH,44107,+12162737110,41.476853,-81.786986
Foodhisattva,2158 S Taylor Rd,,,Cleveland Heights,OH,44118,+12169385675,41.50109,-81.556411
Sun Luck Garden,1901 S Taylor Rd,,,Cleveland Heights,OH,44118,+12163977676,41.50781,-81.5553
China Dragon,3468 Mayfield Rd,,,Cleveland,OH,44118,+12163815783,41.51628,-81.55327
Hibachi To Go,16933 Chagrin Blvd,,,Shaker Heights,OH,44120,+12167518080,41.4710004740839,-81.5667129042241
China Bay,6820 Biddulph Rd,,,Cleveland,OH,44144,+12164592222,41.431217,-81.7332203
Ming Moon,3786 W 117th St,,,Cleveland,OH,44111,+12166710006,41.4500699,-81.76942
China Jade,2190 Brookpark Rd,,,Cleveland,OH,44134,+12167494720,41.4193344,-81.6958084
Empire Chinese Restaurant,4793 Turney Rd,,,Cleveland,OH,44125,+12166411888,41.4299202,-81.6152802
Jackie Chen's Asian Dinner,2199 Brookpark Rd,,,Cleveland,OH,44134,+12167390988,41.418969,-81.6963523
East China,5216 Broadview Rd,,,Cleveland,OH,44134,+12163518889,41.418571472168,-81.6953430175781
Voodoo Tuna,15326 Detroit Ave,,,Lakewood,OH,44107,+12163028862,41.485181287161,-81.8036332726479
East China,16834 Chagrin,,,Shaker Heights,OH,44120,+12162835540,41.46435,-81.56163
Kintaro Sushi & Hot Pot,7325 Northcliff Ave,,,Brooklyn,OH,44144,+12164598862,41.42457,-81.73608
Great Wall Chinese Restaurant,4930 Turney Rd,,,Cleveland,OH,44125,+12168838898,41.42573,-81.61384
Orginal Sakura Japanese F,16122 Lakeshore Blvd,,,Cleveland,OH,44110,+12164868668,41.57901,-81.56777
China Gate,13919 Cedar Rd,,,South Euclid,OH,44118,+12169322924,41.5024063,-81.5391659
Pacific Grill,13911 Cedar Rd,,,South Euclid,OH,44118,+12163209008,41.50165,-81.53917
BIBIBOP Asian Grill,13934 Cedar Rd,,,University Heights,OH,44118,+12169388592,41.501,-81.53854
King Fong,14055 Lorain Ave,,,Cleveland,OH,44111,+12162517678,41.45445,-81.7917
Panda Express,2100 Warrensville Center Rd,,,South Euclid,OH,44121,+12163717099,41.50247,-81.5365
Panda Express,6895 Ridge Rd,,,Parma,OH,44129,+14408887979,41.3780450831478,-81.7341383189276
Chopsticks Express,8800 Day Dr,,,Parma,OH,44129,+14408826209,41.38089,-81.74598
China Wok,6178 Dunham Rd,,,Maple Heights,OH,44137,+12165818885,41.391911,-81.576027
Wing Kee,23161 Emery Rd,,,Cleveland,OH,44128,+12168310100,41.4357413332081,-81.5152082
Hong Kong Restaurant,5855 Smith Rd,,,Brook Park,OH,44142,+12162677120,41.4045465,-81.8040407
P.F. Chang's,26001 Chagrin Blvd,,,Beachwood,OH,44122,+12162921411,41.4650887865235,-81.4937630295753
China House,22316 Lake Shore Blvd,,,Euclid,OH,44123,+12162896886,41.60932929998,-81.52565077206
New Asian Delight,5391 Warrensville Center Rd,,,Maple Heights,OH,44137,+12163321616,41.4137802,-81.5371323
China King,7087 Brecksville Rd,,,Independence,OH,44131,+12163280983,41.3695455,-81.6378501
Asian Express,26010 Euclid Ave,,,Euclid,OH,44132,+12164718855,41.5882999,-81.50049
Wasabi Japanese Steakhouse,3725 Orange Pl,,,Beachwood,OH,44122,+12162928866,41.45793,-81.48734
Hibachi Taste,27043 Chardon Rd,,,Richmond Heights,OH,44143,+14404947089,41.581221,-81.490829
Dragon Gate,6681 W 130th St,,,Parma Heights,OH,44130,+14407430800,41.38239,-81.78413
Blue Ginger Asian Bistro,1061 W Pleasant Valley Rd,,,Parma,OH,44134,+14408428880,41.3598122951615,-81.6856487672348
Hibachi Japanese Steakhouse,21699 Lorain Rd,,,Fairview Park,OH,44126,+14403563033,41.442709,-81.8607674
Bonchon Seven Hills - Broadview Rd,7581 Broadview Rd,,,Seven Hills,OH,44131,+12162366969,41.35954,-81.684
BIBIBOP Asian Grill,511 Park Ave,Ste 149,,Orange,OH,44122,+12164170274,41.45066,-81.486899
China House,21789 Lorain Rd,,,Cleveland,OH,44126,+14403565898,41.4417686,-81.8619385
Pacific East,28601 Chagrin Blvd,Ste 850,,Woodmere,OH,44122,+12167651305,41.462983,-81.47771
Golden Mountain Restaurant,27910 Chardon Rd,,,Willoughby Hills,OH,44092,+14409432997,41.58284,-81.48407
Great Wall,6871 W 130th St,,,Cleveland,OH,44130,+14408889999,41.3776398,-81.7837601
Tang's Wok,25780 Miles Rd,,,Bedford,OH,44146,+12163608688,41.4239311,-81.4969406
Mandarin House Chinese Restaurant,10393 W Pleasant Valley Rd,,,Cleveland,OH,44130,+14408427888,41.36352,-81.75811
Asian Wok Chinese Restaurant,24389 Detroit Rd,,,Westlake,OH,44145,+14408710880,41.47061,-81.89072
China Wok,8021 Broadview Rd,,,Broadview Heights,OH,44147,+14408380858,41.347579,-81.6839395432024
Hibachi Japanese Steakhouse,775 Alpha Dr,,,Highland Heights,OH,44143,+14404499309,41.5391563,-81.4529642
Otani Japanese Restaurant,1625 Golden Gate Plz,,,Mayfield Heights,OH,44124,+14404427098,41.51614,-81.45047
Fuji To Go,25610 Aurora Rd,,,Bedford,OH,44146,+14403592698,41.4081003287095,-81.4983439224952
Shinto - Westlake,857 Columbia Rd,,,Westlake,OH,44145,+14407725017,41.47451,-81.90077
Wah Fu Chinese Restaurant,15210 Bagley Rd,,,Cleveland,OH,44130,+14408863456,41.3696012126997,-81.8036576249051
Red Bowl,28500 Miles Rd,,,Solon,OH,44139,+14403948575,41.42381,-81.47743
Shinano Sushi Bar & Japanese Cuisine,28500 Miles Rd,,,Solon,OH,44139,+14404981614,41.42381,-81.47743
China Dragon,87 Northfield Rd,,,Bedford,OH,44146,+14402325911,41.3802109,-81.5265274
Blue Jade,7080 Engle Rd,Ste B,,Cleveland,OH,44130,+14402341668,41.37463,-81.8255234
Little Hong Kong,18332 Bagley Rd,,,Middleburg Heights,OH,44130,+14402608888,41.3734,-81.82972
Hundred Flowers,28898 Lake Shore Blvd,,,Willowick,OH,44095,+14409430850,41.62945,-81.48373
Ohashi Sushi,24539 Lorain Rd,,,North Olmsted,OH,44070,+14407160988,41.42592,-81.89312
Umi Sushi,7558 Pearl Rd,,,Middleburg Heights,OH,44130,+14402342888,41.359950752897,-81.8155999481678
House of Hunan,7571 Pearl Rd,,,Cleveland,OH,44130,+14402343744,41.3593636,-81.8148727
Hop Hing,5630 Wallings Rd,,,North Royalton,OH,44133,+14405824666,41.33055,-81.72631
New Wong's Chinese Restaurant,30160 Euclid Ave,,,Wickliffe,OH,44092,+14405852822,41.615892,-81.4609137
Foo Sing,25102 Brookpark Rd,Ste 130,,North Olmsted,OH,44070,+14407346062,41.4193581,-81.8968105
Golden Gate Chinese Restaurant,16009 Hilliard Rd,,,Lakewood,OH,44107,+12162286688,41.4766,-81.8091199
Genji,13998 Cedar Rd,,,University Heights,OH,44118,+12169323918,41.5010109,-81.5368805
Szechwan Garden,13800 Detroit Ave,,,Lakewood,OH,44107,+12162261987,41.4857749938965,-81.8136978149414
Oriental Palace Buffet,3364 Warren Rd,,,Cleveland,OH,44111,+12166719988,41.4623,-81.80325
Fu Sheng,4071 Lee Rd,Ste 160,,Cleveland,OH,44128,+12167529986,41.448844,-81.563472
Peking Restaurant,18198 Sloane Ave,,,Lakewood,OH,44107,+12162267800,41.4866,-81.824
Kumo Japanese Seafood Buffet,1975 Snow Rd,,,Parma,OH,44134,+12167413038,41.403182,-81.695767083899
Mizu Japanese Sushi Restaurant,10219 Brookpark Rd,,,Parma,OH,44130,+12168980098,41.41802,-81.75604
Pearl Asian Kitchen,20060 Van Aken Blvd,,,Shaker Heights,OH,44122,+12167518181,41.4655388,-81.5385641
Wasabi Japanese Steakhouse,4181 Rockside Rd,,,Independence,OH,44131,+12169018866,41.4001499,-81.66212
China Express,5720 Ridge Rd,,,Cleveland,OH,44129,+14408882636,41.40675,-81.73487
Ni's Express Chinese Restaurant,6064 Broadview Rd,,,Cleveland,OH,44134,+12166350888,41.3984458,-81.6885519
Jade Chinese Kitchen,14421 Cedar Rd,,,South Euclid,OH,44121,+12169386982,41.50167,-81.52059
Hibachi One,4454 Mayfield Rd,,,South Euclid,OH,44121,+12164171596,41.5202236338531,-81.5191432012134
Spring Garden Chinese,4737 W 130th St,,,Cleveland,OH,44135,+12162516711,41.42524,-81.77978
Happy Buddha Cafe,2173 S Green Rd,,,Cleveland,OH,44121,+12162912446,41.5006901721585,-81.5183592109756
China Kitchen II,5607 Turney Rd,,,Cleveland,OH,44125,+12166633308,41.41054,-81.60089
First Wok,21051 Euclid Ave,,,Cleveland,OH,44117,+12167389000,41.56993,-81.53358
Hibachi Japanese Steakhouse,6901 Rockside Rd,Ste 111,,Independence,OH,44131,+12165200433,41.3956692231282,-81.6425842552948
Thai Gourmet,6901 Rockside Rd,Ste 3,,Independence,OH,44131,+12169862828,41.395547,-81.641748
China Chef,15200 Puritas Ave,,,Cleveland,OH,44135,+12169417833,41.435459,-81.8028408
Jackie Chen's Dragon Towers Chinese Restaurant,17452 Lorain Ave,,,Cleveland,OH,44111,+12162516696,41.4501449,-81.8187626
Ming Home,15720 Broadway Ave,,,Maple Heights,OH,44137,+12166627850,41.416596,-81.5719
Turney China,5851 Turney Rd,,,Cleveland,OH,44125,+12166628899,41.40343,-81.5959
China Sea,417 E 200th St,,,Euclid,OH,44119,+12164869818,41.5947,-81.53988
Wasabi Express,18900 Lorain Rd,,,Fairview Park,OH,44126,+12165055053,41.45356,-81.82969
China Dragon,11680 Snow Rd,,,Parma Heights,OH,44130,+14408428888,41.4051749,-81.7685512
Wild Mango,25385 Cedar Rd,,,Lyndhurst,OH,44124,+12167168001,41.501383304791,-81.5043091261658
Taydo Vietnamese & Chinese Restaurant,11725 Snow Rd,,,Parma,OH,44130,+14408420392,41.4044,-81.76989
Shuhei,23360 Chagrin Blvd,,,Beachwood,OH,44122,+12164641720,41.4637718200684,-81.5142669677734
Teriyaki Express,4640 Warrensville Center Rd,,,North Randall,OH,44128,+12167145800,41.4346630937912,-81.5361987547711
Benihana,23611 Chagrin Blvd,,,Cleveland,OH,44122,+12164647575,41.464981,-81.511579
Ho Wah,2101 Richmond Rd,,,Beachwood,OH,44122,+12168312327,41.500679,-81.496429
Hunan East,724 Richmond Rd,,,Cleveland,OH,44143,+12163812266,41.5407985,-81.4973389
Osaka Japan Grille,691 Richmond Rd,,,Richmond Heights,OH,44143,+14406461553,41.5413887053728,-81.4971097558737
Asian Chao,26300 Cedar Rd,,Beachwood Pl,Beachwood,OH,44122,+12165910283,41.4986,-81.4942169
Japan Cafe,26300 Cedar Rd,,,Beachwood,OH,44122,+12165951593,41.4986,-81.49422
Nori Japan,26300 Cedar Rd,,,Beachwood,OH,44122,+12169104332,41.498406,-81.494032
King Wah,20668 Center Ridge Rd,,,Rocky River,OH,44116,+14403310330,41.4628571,-81.8496983
Golden Lily,6253 Pearl Rd,,,Cleveland,OH,44130,+14408857388,41.39098,-81.76066
Asian Chao,691 Richmond Rd,Ste -  Vc 07,,Cleveland,OH,44143,+14404492040,41.541888,-81.493008
Best Wok Chinese,7671 W Ridgewood Dr,,,Cleveland,OH,44129,+14408881110,41.383402,-81.737832
Double Dragon Buffet,6276 Pearl Rd,,,Cleveland,OH,44130,+14408888177,41.3905106,-81.7619934
Panda Express,21085 Center Ridge Rd,,,Fairview Park,OH,44126,+14403332660,41.4613136115506,-81.8538868368156
China Chef,6328 Pearl Rd,,,Cleveland,OH,44130,+14408888999,41.3887634277344,-81.7644195556641
Omizu Japanese Restaurant,6843 Ridge Rd,,,Parma,OH,44129,+14403400888,41.379137,-81.733429
